City,lat,lon
London,51.5072,-0.1275,
Birmingham,52.48,-1.9025,
Manchester,53.4794,-2.2453,
Leeds,53.7997,-1.5492,
Newcastle,55.0077,-1.6578,
Birstall,52.6736,-1.12,
Glasgow,55.8609,-4.2514,
Liverpool,53.4,-2.9833,
Southampton,50.9,-1.4,
Portsmouth,50.8058,-1.0872,
Nottingham,52.95,-1.15,